[
  { "bbl_id": "BLD-01", "bbl_we": "WE-1001", "egid": "9010001", "name": "Bundeshaus West", "street": "Bundesplatz 3", "zip": "3003", "city": "Bern", "canton": "BE", "region": "Mittelland", "portfolioCategory": "Parlament und Regierung", "status": "in_betrieb", "buildYear": 1902, "gf": 24800, "hnf": 14200, "workplaces": 410, "lat": 46.9465, "lng": 7.4443, "classification": "INTERN", "photo": "1590274853856-f22d5ee3d228" },
  { "bbl_id": "BLD-02", "bbl_we": "WE-1001", "egid": "9010002", "name": "Bundeshaus Ost", "street": "Kochergasse 9", "zip": "3003", "city": "Bern", "canton": "BE", "region": "Mittelland", "portfolioCategory": "Parlament und Regierung", "status": "in_betrieb", "buildYear": 1892, "gf": 21500, "hnf": 12100, "workplaces": 360, "lat": 46.9461, "lng": 7.4449, "classification": "INTERN", "photo": "1543872084-c7bd3822856f" },
  { "bbl_id": "BLD-03", "bbl_we": "WE-1002", "egid": "9010003", "name": "Bundeshaus Nord", "street": "Kochergasse 10", "zip": "3003", "city": "Bern", "canton": "BE", "region": "Mittelland", "portfolioCategory": "Verwaltung", "status": "in_sanierung", "buildYear": 1888, "gf": 18900, "hnf": 10800, "workplaces": 300, "lat": 46.9469, "lng": 7.4451, "classification": "INTERN", "photo": "1504307651254-35680f356dfd" },
  { "bbl_id": "BLD-04", "bbl_we": "WE-1010", "egid": "9010040", "name": "Bernerhof", "street": "Bundesgasse 3", "zip": "3003", "city": "Bern", "canton": "BE", "region": "Mittelland", "portfolioCategory": "Verwaltung", "status": "in_betrieb", "buildYear": 1857, "gf": 16200, "hnf": 9400, "workplaces": 280, "lat": 46.9472, "lng": 7.4419, "classification": "INTERN", "photo": "1515488764276-beab7607c1e6" },
  { "bbl_id": "BLD-05", "bbl_we": "WE-1050", "egid": "9010050", "name": "Verwaltungsgebäude Fellerstrasse 21", "street": "Fellerstrasse 21", "zip": "3003", "city": "Bern", "canton": "BE", "region": "Mittelland", "portfolioCategory": "Verwaltung", "status": "in_betrieb", "buildYear": 1998, "gf": 32000, "hnf": 19500, "workplaces": 720, "lat": 46.9333, "lng": 7.4012, "classification": "INTERN", "photo": "1470075801209-17f9ec0cada6" },
  { "bbl_id": "BLD-06", "bbl_we": "WE-1060", "egid": "9010060", "name": "Campus Guisanplatz 1", "street": "Guisanplatz 1", "zip": "3003", "city": "Bern", "canton": "BE", "region": "Mittelland", "portfolioCategory": "Verwaltung", "status": "in_betrieb", "buildYear": 2018, "gf": 86000, "hnf": 52000, "workplaces": 2600, "lat": 46.9596, "lng": 7.4628, "classification": "INTERN", "photo": "1486406146926-c627a92ad1ab" },
  { "bbl_id": "BLD-07", "bbl_we": "WE-1070", "egid": "9010070", "name": "Geschäftshaus Eigerplatz 1", "street": "Eigerplatz 1", "zip": "3007", "city": "Bern", "canton": "BE", "region": "Mittelland", "portfolioCategory": "Verwaltung", "status": "in_sanierung", "buildYear": 1975, "gf": 14500, "hnf": 8600, "workplaces": 240, "lat": 46.9388, "lng": 7.4338, "classification": "INTERN", "photo": "1541888946425-d81bb19240f5" },
  { "bbl_id": "BLD-08", "bbl_we": "WE-2010", "egid": "9020010", "name": "Bundesgericht", "street": "Av. du Tribunal-fédéral 29", "zip": "1000", "city": "Lausanne", "canton": "VD", "region": "Romandie", "portfolioCategory": "Justiz und Polizei", "status": "in_betrieb", "buildYear": 1927, "gf": 22000, "hnf": 12500, "workplaces": 320, "lat": 46.5223, "lng": 6.6411, "classification": "INTERN", "photo": "1589829545856-d10d557cf95f" },
  { "bbl_id": "BLD-09", "bbl_we": "WE-3010", "egid": "9030010", "name": "Agroscope Posieux", "street": "Route de la Tioleyre 4", "zip": "1725", "city": "Posieux", "canton": "FR", "region": "Romandie", "portfolioCategory": "Bildung und Forschung", "status": "in_planung", "buildYear": 1969, "gf": 41000, "hnf": 24000, "workplaces": 540, "lat": 46.7689, "lng": 7.1067, "classification": "INTERN", "photo": "1532187863486-abf9dbad1b69" },
  { "bbl_id": "BLD-10", "bbl_we": "WE-4010", "egid": "9040010", "name": "Zollanlage Genève-Routes", "street": "Route de Vallard", "zip": "1226", "city": "Genève", "canton": "GE", "region": "Romandie", "portfolioCategory": "Zoll", "status": "in_betrieb", "buildYear": 1988, "gf": 9800, "hnf": 5200, "workplaces": 90, "lat": 46.1828, "lng": 6.1955, "classification": "VERTRAULICH", "photo": "1578575437130-527eed3abbec" },
  { "bbl_id": "BLD-11", "bbl_we": "WE-5010", "egid": "9050010", "name": "Schweizerische Nationalbibliothek", "street": "Hallwylstrasse 15", "zip": "3003", "city": "Bern", "canton": "BE", "region": "Mittelland", "portfolioCategory": "Kultur und Denkmäler", "status": "in_betrieb", "buildYear": 1931, "gf": 28500, "hnf": 16800, "workplaces": 210, "lat": 46.9419, "lng": 7.4515, "classification": "INTERN", "photo": "1568667256549-094345857637" },
  { "bbl_id": "BLD-12", "bbl_we": "WE-5020", "egid": "9050020", "name": "Landesmuseum Zürich", "street": "Museumstrasse 2", "zip": "8001", "city": "Zürich", "canton": "ZH", "region": "Zürich", "portfolioCategory": "Kultur und Denkmäler", "status": "in_betrieb", "buildYear": 1898, "gf": 33000, "hnf": 18200, "workplaces": 180, "lat": 47.3786, "lng": 8.5402, "classification": "INTERN", "photo": "1554907984-15263bfd63bd" }
]
